City_ID,City,Country,Lat,Lng,Max Temp,Humidity,Cloudiness,Wind Speed,Current Description,Date
0,Ushuaia,AR,-54.8,-68.3,46.02,65,75,21.85,broken clouds,2022-07-28 20:03:47
1,Atuona,PF,-9.8,-139.0333,76.73,77,28,24.96,light rain,2022-07-28 20:04:11
2,Port-Gentil,GA,-0.7193,8.7815,75.16,83,40,8.05,scattered clouds,2022-07-28 20:02:27
3,Busselton,AU,-33.65,115.3333,59.81,83,100,18.52,overcast clouds,2022-07-28 20:03:54
4,Novyy Buyan,RU,53.6861,50.0469,68.16,74,64,5.95,broken clouds,2022-07-28 20:06:12
5,Panjab,AF,34.388,67.0233,60.48,51,6,5.12,clear sky,2022-07-28 20:06:13
6,Sao Luiz Gonzaga,BR,-28.4083,-54.9608,64.22,91,100,15.03,overcast clouds,2022-07-28 20:06:13
7,Bethel,US,41.3712,-73.414,89.69,69,40,10.36,scattered clouds,2022-07-28 20:05:11
8,Albany,US,42.6001,-73.9662,89.58,56,100,7.49,overcast clouds,2022-07-28 20:03:54
9,Venezuela,VE,8.0,-66.0,88.09,55,44,0.81,scattered clouds,2022-07-28 20:06:14
10,Punta Arenas,CL,-53.15,-70.9167,42.91,87,75,23.02,light intensity shower rain,2022-07-28 20:03:54
11,Castro,BR,-24.7911,-50.0119,68.83,54,100,8.08,overcast clouds,2022-07-28 20:03:51
12,Izberbash,RU,42.5696,47.8645,75.25,69,0,1.74,clear sky,2022-07-28 20:06:14
13,Korla,CN,41.7597,86.1469,90.88,16,99,15.79,overcast clouds,2022-07-28 20:06:14
14,Nouadhibou,MR,20.931,-17.0347,73.85,76,0,30.91,clear sky,2022-07-28 20:06:15
15,East London,ZA,-33.0153,27.9116,69.85,57,15,16.93,few clouds,2022-07-28 20:00:14
16,Tuktoyaktuk,CA,69.4541,-133.0374,41.18,87,100,24.2,light rain,2022-07-28 20:01:25
17,Jamestown,US,42.097,-79.2353,82.02,41,20,14.97,few clouds,2022-07-28 20:02:17
18,Hobart,AU,-42.8794,147.3294,42.66,83,75,11.5,broken clouds,2022-07-28 20:00:39
19,Hermanus,ZA,-34.4187,19.2345,57.63,74,0,13.47,clear sky,2022-07-28 19:59:32
20,Mannarakkat,IN,10.9833,76.4667,75.47,97,97,2.08,overcast clouds,2022-07-28 20:06:16
21,Atasu,KZ,48.6814,71.6433,66.9,70,73,6.8,broken clouds,2022-07-28 20:02:15
22,Provideniya,RU,64.3833,-173.3,48.96,84,97,3.78,overcast clouds,2022-07-28 20:02:25
23,Mikulovice,CZ,50.2985,17.3215,64.38,68,40,1.95,scattered clouds,2022-07-28 20:06:16
24,Biak,ID,-0.9131,122.8766,74.84,89,96,7.02,overcast clouds,2022-07-28 20:04:05
25,Roros,NO,62.5747,11.3842,46.24,81,55,2.3,broken clouds,2022-07-28 20:06:17
26,Nanortalik,GL,60.1432,-45.2371,45.43,81,39,6.78,scattered clouds,2022-07-28 20:04:11
27,Katsuura,JP,35.1333,140.3,79.38,91,64,8.99,broken clouds,2022-07-28 20:04:01
28,Port Pirie,AU,-33.1833,138.0167,46.33,61,100,7.63,overcast clouds,2022-07-28 20:06:17
29,Saskylakh,RU,71.9167,114.0833,61.2,82,100,6.11,light rain,2022-07-28 20:04:02
30,Leningradskiy,RU,69.3833,178.4167,39.69,79,95,6.22,overcast clouds,2022-07-28 20:05:12
31,Rikitea,PF,-23.1203,-134.9692,73.45,73,91,21.36,overcast clouds,2022-07-28 20:00:31
32,Cape Town,ZA,-33.9258,18.4232,60.89,81,75,19.57,broken clouds,2022-07-28 19:59:12
33,Longyearbyen,SJ,78.2186,15.6401,42.64,81,75,19.57,light intensity drizzle rain,2022-07-28 20:04:33
34,Phan Thiet,VN,10.9333,108.1,76.89,89,10,5.88,clear sky,2022-07-28 20:04:55
35,Vaini,TO,-21.2,-175.2,77.16,88,40,6.91,scattered clouds,2022-07-28 20:04:22
36,Sao Filipe,CV,14.8961,-24.4956,79.38,79,32,11.5,scattered clouds,2022-07-28 20:01:17
37,Russell,US,32.3502,-85.1999,92.35,52,0,3.44,clear sky,2022-07-28 20:06:18
38,Bakel,SN,14.905,-12.4568,88.99,58,90,16.22,overcast clouds,2022-07-28 20:06:19
39,Barrow,US,71.2906,-156.7887,33.4,99,100,12.33,light snow,2022-07-28 20:00:55
40,Hamilton,US,39.1834,-84.5333,90.95,52,40,11.5,scattered clouds,2022-07-28 20:02:34
41,Egvekinot,RU,66.3167,-179.1667,41.74,87,100,2.59,light rain,2022-07-28 20:01:41
42,Bandarbeyla,SO,9.4942,50.8122,76.6,81,59,26.87,broken clouds,2022-07-28 20:04:04
43,Lindi,TZ,-10.0,39.7167,67.68,91,9,4.25,clear sky,2022-07-28 20:06:19
44,Tubinskiy,RU,52.8892,58.2225,54.19,83,56,5.68,broken clouds,2022-07-28 20:06:20
45,Vila Franca Do Campo,PT,37.7167,-25.4333,73.81,77,11,3.49,few clouds,2022-07-28 20:02:33
46,Golden,US,39.7555,-105.2211,76.21,68,75,9.22,broken clouds,2022-07-28 20:05:40
47,Tura,IN,25.5198,90.2201,74.19,92,24,2.48,few clouds,2022-07-28 20:06:20
48,Ostrovnoy,RU,68.0531,39.5131,50.25,90,69,14.29,broken clouds,2022-07-28 20:05:18
49,Hithadhoo,MV,-0.6,73.0833,82.18,74,100,11.72,overcast clouds,2022-07-28 20:04:12
50,Tual,ID,-5.6667,132.75,78.19,86,78,22.82,broken clouds,2022-07-28 20:04:24
51,Bluff,NZ,-46.6,168.3333,47.8,75,100,11.74,light rain,2022-07-28 20:01:16
52,Nikolskoye,RU,59.7035,30.7861,61.81,78,100,3.74,overcast clouds,2022-07-28 20:04:03
53,Arlit,NE,18.7369,7.3853,86.63,48,100,28.41,overcast clouds,2022-07-28 20:04:10
54,Puerto Ayora,EC,-0.7393,-90.3518,78.76,91,77,8.99,broken clouds,2022-07-28 20:04:15
55,Swift Current,CA,50.2834,-107.8014,79.52,31,0,5.95,clear sky,2022-07-28 20:01:21
56,Mizdah,LY,31.4451,12.9801,85.05,29,12,11.43,few clouds,2022-07-28 20:06:22
57,Bambous Virieux,MU,-20.3428,57.7575,69.22,88,75,8.05,broken clouds,2022-07-28 20:04:27
58,Chuy,UY,-33.6971,-53.4616,50.32,89,100,14.76,overcast clouds,2022-07-28 20:04:20
59,Sitka,US,57.0531,-135.33,58.89,88,75,6.91,mist,2022-07-28 20:04:14
60,Gizo,SB,-8.103,156.8419,80.91,75,94,6.38,light rain,2022-07-28 20:06:22
61,Betare Oya,CM,5.6,14.0833,66.63,98,100,3.71,moderate rain,2022-07-28 20:06:23
62,Butaritari,KI,3.0707,172.7902,81.93,72,41,15.32,scattered clouds,2022-07-28 20:03:58
63,Ahipara,NZ,-35.1667,173.1667,56.3,73,99,10.71,overcast clouds,2022-07-28 20:06:23
64,Chagoda,RU,59.164,35.3285,54.77,98,99,4.07,overcast clouds,2022-07-28 20:06:23
65,Numan,NG,9.4667,12.0333,75.85,85,73,8.05,light rain,2022-07-28 20:06:24
66,Chokurdakh,RU,70.6333,147.9167,49.44,48,100,12.48,overcast clouds,2022-07-28 20:04:47
67,Ayagoz,KZ,47.9714,80.4392,72.54,33,5,8.93,clear sky,2022-07-28 20:03:23
68,Faanui,PF,-16.4833,-151.75,79.39,71,1,24.65,light rain,2022-07-28 20:00:48
69,Port Alfred,ZA,-33.5906,26.891,68.23,60,1,14.07,clear sky,2022-07-28 20:00:50
70,Palana,RU,59.1167,159.9667,48.2,73,89,2.37,overcast clouds,2022-07-28 20:06:24
71,Mataura,NZ,-46.1927,168.8643,47.48,98,100,3.13,overcast clouds,2022-07-28 20:03:49
72,Olden,NO,61.8364,6.8064,61.54,69,25,3.42,scattered clouds,2022-07-28 20:06:25
73,Gornyy,RU,55.1153,83.9059,57.45,87,11,6.64,few clouds,2022-07-28 20:06:25
74,Vanimo,PG,-2.6741,141.3028,76.21,91,38,5.3,scattered clouds,2022-07-28 20:06:25
75,Kenai,US,60.5544,-151.2583,68.02,47,0,9.22,clear sky,2022-07-28 20:06:26
76,Guerrero Negro,MX,27.9769,-114.0611,79.21,55,21,13.94,few clouds,2022-07-28 20:01:35
77,Ishigaki,JP,24.3448,124.1572,85.03,75,8,9.24,clear sky,2022-07-28 20:04:03
78,Brigantine,US,39.4101,-74.3646,91.2,61,84,15.46,broken clouds,2022-07-28 20:06:26
79,Klaksvik,FO,62.2266,-6.589,52.72,91,84,15.01,broken clouds,2022-07-28 20:04:47
80,Kapaa,US,22.0752,-159.319,82.38,75,100,5.75,moderate rain,2022-07-28 20:03:49
81,Bengkulu,ID,-3.8004,102.2655,75.29,90,87,5.14,overcast clouds,2022-07-28 19:59:36
82,Kyren,RU,51.6828,102.1408,53.2,91,55,1.92,broken clouds,2022-07-28 20:06:27
83,Shubarshi,KZ,48.5872,57.1869,76.24,47,58,6.35,broken clouds,2022-07-28 20:06:27
84,Hofn,IS,64.2539,-15.2082,51.44,93,100,1.74,overcast clouds,2022-07-28 20:06:28
85,Kruisfontein,ZA,-34.0033,24.7314,59.85,65,0,7.76,clear sky,2022-07-28 20:01:11
86,Sorong,ID,-0.8833,131.25,77.61,86,71,4.63,broken clouds,2022-07-28 20:05:25
87,Gamba,GA,-2.65,10.0,71.2,85,100,3.42,overcast clouds,2022-07-28 20:06:28
88,Rio Gallegos,AR,-51.6226,-69.2181,44.65,65,0,33.38,clear sky,2022-07-28 20:06:29
89,Burns Lake,CA,54.2331,-125.7533,87.17,24,2,3.58,clear sky,2022-07-28 20:06:29
90,Kachug,RU,53.9606,105.8817,53.29,97,100,3.04,light rain,2022-07-28 20:06:29
91,Dikson,RU,73.5069,80.5464,43.39,100,100,15.93,overcast clouds,2022-07-28 20:04:00
92,Khatanga,RU,71.9667,102.5,59.31,69,53,5.06,broken clouds,2022-07-28 20:00:44
93,Lewistown,US,40.5992,-77.5714,86.14,86,0,8.05,clear sky,2022-07-28 20:06:30
94,Pangnirtung,CA,66.1451,-65.7125,52.72,73,68,5.77,broken clouds,2022-07-28 20:06:11
95,Mahebourg,MU,-20.4081,57.7,69.26,88,75,8.05,broken clouds,2022-07-28 20:05:00
96,Moree,AU,-29.4667,149.85,42.24,83,0,7.23,clear sky,2022-07-28 20:06:30
97,Codrington,AU,-38.2667,141.9667,44.92,77,13,5.17,few clouds,2022-07-28 20:06:31
98,Vardo,NO,70.3705,31.1107,48.18,93,100,18.41,overcast clouds,2022-07-28 20:05:58
99,Lebu,CL,-37.6167,-73.65,52.43,78,0,14.45,clear sky,2022-07-28 20:05:00
100,Salalah,OM,17.0151,54.0924,77.09,94,100,5.75,overcast clouds,2022-07-28 20:05:29
101,Strezhevoy,RU,60.7333,77.5889,53.46,87,8,7.09,clear sky,2022-07-28 20:06:31
102,Taungdwingyi,MM,20.0167,95.55,80.28,76,50,4.56,scattered clouds,2022-07-28 20:06:32
103,Antofagasta,CL,-23.65,-70.4,58.28,78,42,9.62,scattered clouds,2022-07-28 20:06:04
104,Georgetown,MY,5.4112,100.3354,80.89,85,20,4.61,few clouds,2022-07-28 20:01:19
105,Nome,US,64.5011,-165.4064,56.16,71,0,6.91,clear sky,2022-07-28 20:06:32
106,Ribeira Grande,PT,38.5167,-28.7,75.6,69,75,5.75,broken clouds,2022-07-28 19:59:40
107,Khovu-Aksy,RU,51.1333,93.6,49.06,66,78,3.02,broken clouds,2022-07-28 20:06:33
108,Masallatah,LY,32.6167,14.0,78.39,78,0,3.69,clear sky,2022-07-28 20:06:33
109,Goderich,CA,43.7501,-81.7165,77.92,67,11,4.0,few clouds,2022-07-28 20:03:56
110,Talara,PE,-4.5772,-81.2719,72.36,68,0,14.97,clear sky,2022-07-28 20:05:58
111,Saint-Pierre,RE,-21.3393,55.4781,68.92,81,0,6.91,clear sky,2022-07-28 20:06:33
112,Caxito,AO,-8.5785,13.6643,68.92,88,61,3.13,broken clouds,2022-07-28 20:06:34
113,Muros,ES,42.7762,-9.0603,73.69,74,0,8.32,clear sky,2022-07-28 20:06:08
114,Biryusinsk,RU,55.9634,97.8235,56.98,95,100,4.56,overcast clouds,2022-07-28 20:06:34
115,Boende,CD,-0.2167,20.8667,75.4,81,100,1.63,overcast clouds,2022-07-28 20:06:35
116,Caravelas,BR,-17.7125,-39.2481,72.7,72,0,6.38,clear sky,2022-07-28 20:05:09
117,Zhigansk,RU,66.7697,123.3711,66.29,68,99,6.26,overcast clouds,2022-07-28 20:06:35
118,Vila Velha,BR,-20.3297,-40.2925,76.95,79,20,14.97,few clouds,2022-07-28 20:04:12
119,Luchenza,MW,-16.0069,35.3095,54.55,90,0,3.87,clear sky,2022-07-28 20:06:35
120,Golfito,CR,8.639,-83.166,80.74,80,98,3.98,overcast clouds,2022-07-28 20:06:36
121,Saint-Philippe,RE,-21.3585,55.7679,67.21,84,4,8.86,clear sky,2022-07-28 20:00:58
122,Cabo San Lucas,MX,22.8909,-109.9124,94.6,53,20,5.99,few clouds,2022-07-28 20:02:57
123,Stromness,GB,58.965,-3.296,54.88,87,71,10.0,broken clouds,2022-07-28 20:06:36
124,Kodiak,US,57.79,-152.4072,63.91,55,0,6.91,clear sky,2022-07-28 20:03:59
125,Nanakuli,US,21.3906,-158.1547,83.57,50,75,8.05,broken clouds,2022-07-28 20:06:37
126,Jalu,LY,29.0331,21.5482,88.12,34,0,16.08,clear sky,2022-07-28 20:00:28
127,Urucui,BR,-7.2294,-44.5561,95.14,21,0,4.97,clear sky,2022-07-28 20:06:37
128,Bontang,ID,0.1333,117.5,75.56,89,70,4.25,moderate rain,2022-07-28 20:06:37
129,Portland,US,45.5234,-122.6762,95.49,48,16,5.01,few clouds,2022-07-28 20:01:54
130,Saint-Augustin,CA,51.226,-58.6502,56.88,75,100,9.53,overcast clouds,2022-07-28 20:04:34
131,Tuatapere,NZ,-46.1333,167.6833,40.05,91,91,2.77,overcast clouds,2022-07-28 20:04:38
132,Sola,VU,-13.8833,167.55,80.17,78,72,14.88,broken clouds,2022-07-28 20:04:04
133,Severo-Kurilsk,RU,50.6789,156.125,52.77,92,100,9.06,overcast clouds,2022-07-28 20:02:24
134,Ilulissat,GL,69.2167,-51.1,51.82,62,40,4.61,scattered clouds,2022-07-28 20:01:11
135,Victoria,HK,22.2855,114.1577,87.33,80,100,4.0,overcast clouds,2022-07-28 20:01:14
136,Hilo,US,19.7297,-155.09,86.29,72,0,9.22,clear sky,2022-07-28 20:04:23
137,Sura Mare,RO,45.85,24.1667,66.06,88,20,5.01,few clouds,2022-07-28 20:06:38
138,Touros,BR,-5.1989,-35.4608,77.83,78,5,15.46,clear sky,2022-07-28 20:05:11
139,Felanitx,ES,39.4696,3.1483,82.92,74,0,7.54,clear sky,2022-07-28 20:06:39
140,Saint George,US,37.1041,-113.5841,97.25,36,0,12.66,clear sky,2022-07-28 20:01:11
141,Zamora,EC,-4.0692,-78.9567,81.16,49,34,4.72,scattered clouds,2022-07-28 20:06:39
142,Havre-Saint-Pierre,CA,50.2334,-63.5986,59.95,86,89,16.04,overcast clouds,2022-07-28 20:05:52
143,Kaitangata,NZ,-46.2817,169.8464,41.77,92,100,8.77,overcast clouds,2022-07-28 20:04:33
144,Baykit,RU,61.67,96.37,60.57,97,99,4.0,overcast clouds,2022-07-28 20:06:40
145,Lorengau,PG,-2.0226,147.2712,80.94,81,70,13.98,broken clouds,2022-07-28 20:01:43
146,Poya,NC,-21.35,165.15,63.79,85,0,6.2,clear sky,2022-07-28 20:06:40
147,Khani,GE,41.9563,42.9566,60.37,96,5,1.48,clear sky,2022-07-28 20:06:15
148,Ambilobe,MG,-13.2,49.05,66.67,88,15,3.4,few clouds,2022-07-28 20:06:41
149,Dutse,NG,11.7594,9.3392,76.46,72,100,9.8,overcast clouds,2022-07-28 20:06:41
150,Palembang,ID,-2.9167,104.7458,76.12,91,100,3.11,overcast clouds,2022-07-28 20:06:38
151,Bilma,NE,18.6853,12.9164,95.81,25,100,9.1,overcast clouds,2022-07-28 20:06:41
152,Upernavik,GL,72.7868,-56.1549,43.05,69,100,5.75,overcast clouds,2022-07-28 20:04:06
153,Severnyy,RU,50.677,36.5532,68.04,73,0,8.95,clear sky,2022-07-28 20:06:42
154,Iqaluit,CA,63.7506,-68.5145,62.53,36,90,15.35,overcast clouds,2022-07-28 20:00:13
155,Saldanha,ZA,-33.0117,17.9442,55.96,87,14,11.16,few clouds,2022-07-28 20:03:49
156,Bredasdorp,ZA,-34.5322,20.0403,52.81,74,0,6.33,clear sky,2022-07-28 20:03:59
157,Shingu,JP,33.7333,135.9833,76.17,92,68,4.68,broken clouds,2022-07-28 20:06:43
158,Haines Junction,CA,60.7522,-137.5108,50.9,88,100,1.43,overcast clouds,2022-07-28 20:06:43
159,Fenelon Falls,CA,44.5334,-78.7496,78.1,47,72,15.01,broken clouds,2022-07-28 20:06:43
160,Riyadh,SA,24.6877,46.7219,93.34,36,100,5.23,overcast clouds,2022-07-28 20:05:27
161,Arman,RU,59.7,150.1667,53.17,96,100,4.99,light rain,2022-07-28 20:06:44
162,Wladyslawowo,PL,54.7909,18.4009,60.35,87,6,5.75,clear sky,2022-07-28 20:06:44
163,Tasiilaq,GL,65.6145,-37.6368,41.16,94,100,3.94,overcast clouds,2022-07-28 20:04:31
164,Baghdad,IQ,33.3406,44.4009,94.91,15,0,10.36,clear sky,2022-07-28 20:05:47
165,Mulege,MX,26.8833,-111.9833,94.05,44,87,12.26,overcast clouds,2022-07-28 20:06:45
166,Meulaboh,ID,4.1363,96.1285,75.61,89,100,2.19,light rain,2022-07-28 20:01:36
167,Solo,PH,13.7469,120.9012,82.24,79,100,12.73,overcast clouds,2022-07-28 20:06:45
168,La Cruz,MX,23.9167,-106.9,88.07,62,42,9.17,scattered clouds,2022-07-28 20:06:45
169,Kulhudhuffushi,MV,6.6221,73.07,81.12,80,100,17.76,light rain,2022-07-28 20:06:46
170,Wagga Wagga,AU,-35.1167,147.3667,35.85,100,100,0.0,overcast clouds,2022-07-28 20:06:46
171,Mount Gambier,AU,-37.8333,140.7667,33.71,100,7,0.0,mist,2022-07-28 20:01:55
172,Mitsamiouli,KM,-11.3847,43.2844,75.96,74,37,7.83,light rain,2022-07-28 20:06:46
173,San Matias,BO,-16.3667,-58.4,98.29,14,69,7.87,broken clouds,2022-07-28 20:06:47
174,Umkomaas,ZA,-30.2067,30.7978,64.67,91,16,11.9,few clouds,2022-07-28 20:06:47
175,Sinnamary,GF,5.3833,-52.95,81.0,82,77,8.37,broken clouds,2022-07-28 20:05:27
176,Kathu,TH,7.9178,98.3332,87.69,99,90,6.87,overcast clouds,2022-07-28 20:06:48
177,Ulladulla,AU,-35.35,150.4667,47.48,83,89,6.51,overcast clouds,2022-07-28 20:06:48
178,Baruun-Urt,MN,46.6806,113.2792,59.85,62,24,10.92,few clouds,2022-07-28 20:03:26
179,Dolgoye,RU,52.8,37.2167,63.28,89,100,9.78,overcast clouds,2022-07-28 20:06:48
180,Torbay,CA,47.6666,-52.7314,62.76,89,100,16.11,mist,2022-07-28 20:03:53
181,Mount Isa,AU,-20.7333,139.5,47.97,46,2,8.05,clear sky,2022-07-28 20:02:46
182,Santa Rosa,PH,14.3122,121.1114,82.11,90,100,5.21,overcast clouds,2022-07-28 20:04:20
183,Salta,AR,-24.7859,-65.4117,50.59,87,100,5.75,light intensity drizzle,2022-07-28 20:05:43
184,Shunyi,CN,40.125,116.6453,71.55,88,0,4.47,clear sky,2022-07-28 20:06:49
185,Fort Nelson,CA,58.8053,-122.7002,76.75,41,100,10.58,overcast clouds,2022-07-28 20:04:18
186,Mogadishu,SO,2.0371,45.3438,76.1,83,34,17.92,scattered clouds,2022-07-28 20:05:27
187,Hailey,US,43.5196,-114.3153,91.99,29,40,5.99,scattered clouds,2022-07-28 20:05:05
188,Zelenogorskiy,RU,55.0333,87.0,57.69,82,97,4.05,overcast clouds,2022-07-28 20:06:50
189,Aksarka,RU,66.5606,67.7975,61.79,66,35,7.16,scattered clouds,2022-07-28 20:06:50
190,Avarua,CK,-21.2078,-159.775,77.05,83,40,23.02,scattered clouds,2022-07-28 20:03:55
191,Lasa,IT,46.6166,10.7002,63.45,94,98,2.44,overcast clouds,2022-07-28 20:05:11
192,Ternate,ID,0.8,127.4,79.45,81,84,3.74,broken clouds,2022-07-28 20:06:50
193,Laguna,US,38.421,-121.4238,96.01,36,0,6.91,clear sky,2022-07-28 20:05:19
194,Assai,BR,-23.3733,-50.8414,84.06,35,54,4.7,broken clouds,2022-07-28 20:06:51
195,Rio Grande,BR,-32.035,-52.0986,59.11,94,100,19.24,overcast clouds,2022-07-28 20:06:51
196,Riviere-Au-Renard,CA,48.9957,-64.3971,73.69,76,63,10.0,broken clouds,2022-07-28 20:04:53
197,Maumere,ID,-8.6199,122.2111,73.49,78,51,5.03,broken clouds,2022-07-28 20:06:52
198,Ucluelet,CA,48.9329,-125.5528,69.62,76,39,7.67,scattered clouds,2022-07-28 20:01:21
199,Nauta,PE,-4.5061,-73.5757,88.48,52,92,1.86,overcast clouds,2022-07-28 20:06:52
200,Kandiari,PK,26.9156,68.5216,87.26,67,94,8.93,overcast clouds,2022-07-28 20:06:53
201,Kavaratti,IN,10.5669,72.642,81.05,82,100,17.67,overcast clouds,2022-07-28 20:06:53
202,Airai,TL,-8.9266,125.4092,51.17,80,76,3.85,broken clouds,2022-07-28 20:01:14
203,Dunedin,NZ,-45.8742,170.5036,44.8,75,100,8.01,moderate rain,2022-07-28 20:03:53
204,Cooma,AU,-36.2333,149.1333,30.52,95,28,3.69,scattered clouds,2022-07-28 20:05:03
205,Tonj,SS,7.2737,28.6822,69.04,97,94,2.37,overcast clouds,2022-07-28 20:06:53
206,Prince Rupert,CA,54.3161,-130.3201,68.02,66,10,5.26,clear sky,2022-07-28 20:06:54
207,Lagoa,PT,39.05,-27.9833,72.34,74,3,4.18,clear sky,2022-07-28 20:03:17
208,Montelimar,FR,44.5584,4.7509,78.53,41,51,6.29,broken clouds,2022-07-28 20:06:54
209,New Norfolk,AU,-42.7826,147.0587,42.3,84,7,1.01,clear sky,2022-07-28 20:04:14
210,Zaysan,KZ,47.4667,84.8667,74.01,46,48,13.6,scattered clouds,2022-07-28 20:06:54
211,Alofi,NU,-19.0595,-169.9187,76.6,80,20,23.53,light rain,2022-07-28 20:00:24
212,Awbari,LY,26.5921,12.7805,88.32,11,0,7.49,clear sky,2022-07-28 20:06:55
213,Kambove,CD,-10.8764,26.5969,60.71,44,15,4.52,few clouds,2022-07-28 20:06:55
214,Port Augusta,AU,-32.5,137.7667,46.04,47,84,7.0,broken clouds,2022-07-28 20:06:56
215,Fortuna,US,40.5982,-124.1573,73.92,70,0,10.36,clear sky,2022-07-28 20:04:49
216,Saquena,PE,-4.6667,-73.5167,87.91,56,92,2.37,overcast clouds,2022-07-28 20:06:56
217,Yangjiang,CN,21.85,111.9667,80.47,89,73,4.25,broken clouds,2022-07-28 20:06:56
218,Bonthe,SL,7.5264,-12.505,76.24,77,100,11.97,overcast clouds,2022-07-28 20:06:57
219,Tiksi,RU,71.6872,128.8694,51.6,91,91,5.28,overcast clouds,2022-07-28 19:59:53
220,Chivolo,CO,10.025,-74.6228,83.5,72,95,8.72,overcast clouds,2022-07-28 20:06:57
221,Ketchikan,US,55.3422,-131.6461,72.07,56,0,10.36,clear sky,2022-07-28 20:06:57
222,Clarence Town,AU,-32.5833,151.7833,53.85,74,99,3.98,overcast clouds,2022-07-28 20:06:58
223,Gannan,CN,47.9147,123.5031,66.13,96,100,3.87,overcast clouds,2022-07-28 20:06:58
224,Port Lincoln,AU,-34.7333,135.8667,52.68,84,98,13.22,overcast clouds,2022-07-28 20:02:23
225,College,US,64.8569,-147.8028,61.59,64,40,4.61,scattered clouds,2022-07-28 20:05:44
226,Cherskiy,RU,68.75,161.3,53.74,50,7,4.0,clear sky,2022-07-28 19:59:57
227,Esna,EG,25.2934,32.554,94.19,14,57,8.99,broken clouds,2022-07-28 20:06:59
228,Preobrazheniye,RU,42.9019,133.9064,67.93,94,100,4.99,overcast clouds,2022-07-28 20:06:59
229,Seoul,KR,37.5683,126.9778,80.04,88,35,3.29,scattered clouds,2022-07-28 20:00:37
230,Qaanaaq,GL,77.484,-69.3632,41.22,68,11,2.95,few clouds,2022-07-28 20:01:12
231,Solnechnyy,RU,50.7214,136.6319,65.95,95,100,1.28,overcast clouds,2022-07-28 20:06:43
232,Batagay-Alyta,RU,67.8006,130.4114,71.65,63,63,1.86,broken clouds,2022-07-28 20:07:00
233,Thompson,CA,55.7435,-97.8558,73.56,38,20,8.05,few clouds,2022-07-28 19:59:43
234,Luderitz,NA,-26.6481,15.1594,54.52,86,60,2.68,broken clouds,2022-07-28 20:05:46
235,Padang,ID,-0.9492,100.3543,78.31,85,100,4.16,light rain,2022-07-28 20:07:00
236,Tatawin,TN,32.9297,10.4518,83.66,53,0,9.42,clear sky,2022-07-28 20:07:01
237,Yulara,AU,-25.2406,130.9889,47.59,34,89,9.66,overcast clouds,2022-07-28 20:04:27
238,Saint-Joseph,RE,-21.3667,55.6167,66.2,82,2,9.22,clear sky,2022-07-28 20:05:11
239,Souillac,MU,-20.5167,57.5167,68.38,88,75,8.05,broken clouds,2022-07-28 20:03:47
240,Sovetskaya Gavan,RU,48.9723,140.2878,60.4,96,95,0.85,overcast clouds,2022-07-28 20:07:01
241,Nicoya,CR,10.1483,-85.452,84.47,69,100,2.64,overcast clouds,2022-07-28 20:04:02
242,Luganville,VU,-15.5333,167.1667,77.86,85,100,4.18,overcast clouds,2022-07-28 20:07:02
243,Ferme-Neuve,CA,46.7001,-75.4493,76.62,57,94,6.64,overcast clouds,2022-07-28 20:07:03
244,Kidal,ML,18.4411,1.4078,86.13,50,83,18.72,light rain,2022-07-28 20:07:03
245,Mahajanga,MG,-15.7167,46.3167,73.81,70,90,2.91,overcast clouds,2022-07-28 20:06:40
246,Faya,SA,18.3851,42.4509,70.32,56,100,1.39,overcast clouds,2022-07-28 20:02:43
247,Bereda,ES,43.2686,-7.5406,68.41,95,12,2.73,few clouds,2022-07-28 20:04:32
248,Tomatlan,MX,19.9333,-105.25,90.61,49,53,10.85,broken clouds,2022-07-28 20:07:04
249,Senneterre,CA,48.3835,-77.2328,59.09,94,100,8.39,overcast clouds,2022-07-28 20:07:04
250,Paamiut,GL,61.994,-49.6678,41.85,92,100,18.75,overcast clouds,2022-07-28 20:05:42
251,Araceli,PH,10.5529,119.9913,82.94,79,100,8.93,very heavy rain,2022-07-28 20:07:04
252,Atkarsk,RU,51.8718,45.0078,69.94,69,9,4.18,clear sky,2022-07-28 20:07:05
253,Okhotsk,RU,59.3833,143.3,58.96,88,8,6.89,clear sky,2022-07-28 20:07:05
254,San Cristobal,VE,7.7669,-72.225,75.38,60,99,6.8,overcast clouds,2022-07-28 20:07:05
255,Zeya,RU,53.75,127.2667,66.0,99,100,2.28,light rain,2022-07-28 20:07:06
256,Carnarvon,AU,-24.8667,113.6333,70.07,55,100,6.98,overcast clouds,2022-07-28 20:04:17
257,Sisimiut,GL,66.9395,-53.6735,44.65,76,100,5.86,overcast clouds,2022-07-28 20:07:06
258,Badulla,LK,6.9895,81.0557,71.02,89,100,1.99,light rain,2022-07-28 20:07:07
259,Fairbanks,US,64.8378,-147.7164,61.61,64,20,4.61,few clouds,2022-07-28 20:06:51
260,Muli,MV,2.9167,73.5667,81.77,75,55,13.11,broken clouds,2022-07-28 20:07:07
261,Hovd,MN,48.0056,91.6419,62.4,41,80,2.71,broken clouds,2022-07-28 20:05:56
262,Grand Gaube,MU,-20.0064,57.6608,69.39,77,2,1.01,clear sky,2022-07-28 20:05:35
263,Tanout,NE,14.9709,8.8879,82.09,52,92,7.0,overcast clouds,2022-07-28 20:07:07
264,Sao Joao Da Barra,BR,-21.6403,-41.0511,77.09,79,51,18.97,broken clouds,2022-07-28 20:07:08
265,Cheney,US,47.4874,-117.5758,99.81,26,20,0.0,few clouds,2022-07-28 20:07:08
266,Kampar,MY,4.3,101.15,75.92,88,89,2.86,overcast clouds,2022-07-28 20:07:08
267,Isangel,VU,-19.55,169.2667,74.34,89,100,11.18,overcast clouds,2022-07-28 20:07:09
268,Dingle,PH,10.9995,122.6711,77.61,90,100,7.38,overcast clouds,2022-07-28 20:05:33
269,Lata,PT,40.1629,-8.3327,64.54,79,0,5.99,clear sky,2022-07-28 20:07:09
270,Namatanai,PG,-3.6667,152.4333,79.48,79,89,10.87,overcast clouds,2022-07-28 20:04:09
271,Tautira,PF,-17.7333,-149.15,77.34,77,23,24.23,light rain,2022-07-28 20:04:38
272,Inhambane,MZ,-23.865,35.3833,63.57,72,0,3.69,clear sky,2022-07-28 20:07:04
273,San Patricio,US,28.017,-97.5169,99.16,41,61,18.86,broken clouds,2022-07-28 20:04:35
274,Naqadeh,IR,36.9553,45.388,77.23,36,0,2.71,clear sky,2022-07-28 20:07:10
275,Athni,IN,16.7333,75.0667,79.93,75,99,6.15,overcast clouds,2022-07-28 20:07:10
276,Marathon,US,44.9,-89.7668,73.15,56,75,11.5,broken clouds,2022-07-28 20:07:11
277,San Jose,US,37.3394,-121.895,90.9,52,40,9.22,scattered clouds,2022-07-28 20:05:04
278,Talnakh,RU,69.4865,88.3972,53.6,75,0,8.72,clear sky,2022-07-28 20:04:00
279,Bathsheba,BB,13.2167,-59.5167,86.61,79,40,20.71,scattered clouds,2022-07-28 20:05:02
280,Dharchula,IN,29.85,80.5333,71.56,94,99,0.49,heavy intensity rain,2022-07-28 20:07:11
281,Neka,IR,36.6508,53.299,75.78,89,100,8.23,light rain,2022-07-28 20:07:12
282,Rio Cuarto,AR,-33.1307,-64.3499,61.47,26,0,18.75,clear sky,2022-07-28 20:07:12
283,Brewster,US,41.3973,-73.6171,90.95,69,40,10.36,scattered clouds,2022-07-28 20:03:38
284,Pevek,RU,69.7008,170.3133,39.61,78,94,2.46,overcast clouds,2022-07-28 20:01:23
285,Khasan,RU,42.4308,130.6434,70.38,97,100,6.46,overcast clouds,2022-07-28 20:05:01
286,Grindavik,IS,63.8424,-22.4338,48.67,81,75,10.36,broken clouds,2022-07-28 20:01:59
287,Port-Cartier,CA,50.0334,-66.8654,63.75,79,48,10.71,scattered clouds,2022-07-28 20:07:13
288,Onega,RU,63.9061,38.1404,62.53,85,81,4.34,broken clouds,2022-07-28 20:07:13
289,Kupang,ID,-10.1667,123.5833,73.69,75,43,12.48,scattered clouds,2022-07-28 20:07:13
290,Yellowknife,CA,62.456,-114.3525,52.03,89,100,10.27,light rain,2022-07-28 20:01:27
291,Mananara,MG,-16.1667,49.7667,66.09,94,58,4.59,light rain,2022-07-28 20:07:14
292,Agucadoura,PT,41.4318,-8.7804,72.32,83,0,15.61,clear sky,2022-07-28 20:07:14
293,Maridi,SS,4.9158,29.4742,66.15,96,100,1.3,light rain,2022-07-28 20:07:15
294,Yoichi,JP,43.2039,140.7703,69.08,86,98,2.42,overcast clouds,2022-07-28 20:07:15
295,North Bend,US,43.4065,-124.2243,81.25,81,0,13.8,clear sky,2022-07-28 20:07:15
296,Kutum,SD,14.2,24.6667,78.94,49,100,7.2,overcast clouds,2022-07-28 20:07:16
297,Nokaneng,BW,-19.6667,22.2667,62.53,32,1,5.7,clear sky,2022-07-28 20:07:16
298,Grafton,US,42.207,-71.6856,87.35,64,75,11.5,broken clouds,2022-07-28 20:05:43
299,Cidreira,BR,-30.1811,-50.2056,65.25,93,100,9.95,moderate rain,2022-07-28 20:04:36
300,Xuddur,SO,4.1213,43.8894,73.06,63,19,18.86,few clouds,2022-07-28 20:07:16
301,Mar Del Plata,AR,-38.0023,-57.5575,50.09,97,100,18.01,mist,2022-07-28 20:03:47
302,Russkaya Polyana,UA,49.417,31.9201,66.49,63,4,7.34,clear sky,2022-07-28 20:07:17
303,Raudeberg,NO,61.9875,5.1352,57.87,79,26,15.32,scattered clouds,2022-07-28 20:04:19
304,Uvalde,US,29.3669,-99.767,97.32,37,40,12.66,scattered clouds,2022-07-28 20:07:17
305,Turukhansk,RU,65.8167,87.9833,53.11,82,0,9.82,clear sky,2022-07-28 20:02:42
306,Nishihara,JP,26.1842,127.7558,82.45,86,40,6.91,scattered clouds,2022-07-28 20:04:08
307,Nouakchott,MR,18.0858,-15.9785,82.33,79,5,18.86,clear sky,2022-07-28 20:07:18
308,Esperance,AU,-33.8667,121.9,57.16,81,1,12.37,clear sky,2022-07-28 20:01:44
309,Pisco,PE,-13.7,-76.2167,64.45,72,40,9.22,scattered clouds,2022-07-28 20:04:22
310,Limbang,MY,4.75,115.0,77.11,96,70,2.04,broken clouds,2022-07-28 20:04:44
311,Bandar-E Lengeh,IR,26.5579,54.8807,90.05,67,100,15.1,overcast clouds,2022-07-28 20:07:18
312,Zhezkazgan,KZ,47.8043,67.7144,70.29,59,12,14.99,few clouds,2022-07-28 20:07:19
313,Batticaloa,LK,7.7102,81.6924,79.56,82,100,5.84,moderate rain,2022-07-28 20:06:16
314,Bonanza,NI,14.0289,-84.591,82.09,71,45,4.16,scattered clouds,2022-07-28 20:07:19
315,Dubbo,AU,-32.25,148.6167,37.53,100,75,3.44,broken clouds,2022-07-28 20:06:19
316,Deputatskiy,RU,69.3,139.9,50.23,55,100,4.29,overcast clouds,2022-07-28 20:07:20
317,Rovaniemi,FI,66.5,25.7167,54.81,76,40,8.05,scattered clouds,2022-07-28 20:07:20
318,Ferrol,ES,43.4832,-8.2369,68.52,85,1,2.28,clear sky,2022-07-28 20:07:20
319,Camacha,PT,33.0833,-16.3333,69.22,83,75,14.97,broken clouds,2022-07-28 20:07:21
320,Arraial Do Cabo,BR,-22.9661,-42.0278,73.47,77,35,19.98,scattered clouds,2022-07-28 20:00:49
321,Ornes,NO,66.8689,13.7078,51.53,79,40,4.5,scattered clouds,2022-07-28 20:07:21
322,Bucine,IT,43.4764,11.6148,83.59,71,24,1.54,few clouds,2022-07-28 20:07:21
323,Puerto Narino,CO,-3.7703,-70.3831,83.05,68,99,1.57,overcast clouds,2022-07-28 20:07:22
324,Loandjili,CG,-4.7561,11.8578,70.38,89,15,6.62,few clouds,2022-07-28 20:07:22
325,Huntsville,US,34.7304,-86.5861,96.85,52,94,8.01,overcast clouds,2022-07-28 20:02:33
326,Watsa,CD,3.0372,29.5355,63.59,98,100,1.23,light rain,2022-07-28 20:07:22
327,Taywarah,AF,33.35,64.4167,65.88,37,45,4.99,scattered clouds,2022-07-28 20:07:23
328,Gao,ML,16.6362,1.637,85.19,53,100,22.93,light rain,2022-07-28 20:03:41
329,Rocha,UY,-34.4833,-54.3333,48.69,84,94,16.51,overcast clouds,2022-07-28 20:07:23
330,San Lawrenz,MT,36.0553,14.204,81.86,88,0,4.99,clear sky,2022-07-28 20:07:24
331,Bud,US,39.447,-86.1758,88.93,56,52,5.41,broken clouds,2022-07-28 20:07:24
332,Karangasem,ID,-8.45,115.6167,75.47,77,99,2.21,overcast clouds,2022-07-28 20:07:24
333,Jishou,CN,28.3167,109.7167,73.51,93,1,0.89,clear sky,2022-07-28 20:07:25
334,Tongchuan,CN,35.0806,109.0897,70.47,61,32,3.58,scattered clouds,2022-07-28 20:07:25
335,Thinadhoo,MV,0.5333,72.9333,82.72,72,87,13.18,overcast clouds,2022-07-28 20:07:25
336,Makasar,ID,-5.14,119.4221,71.65,94,20,2.3,few clouds,2022-07-28 20:07:26
337,Bogorodskoye,RU,56.55,37.8833,63.39,98,100,9.4,overcast clouds,2022-07-28 20:07:26
338,Aklavik,CA,68.2191,-135.0107,42.58,88,100,7.7,overcast clouds,2022-07-28 20:05:39
339,Atbasar,KZ,51.8,68.3333,63.27,91,100,5.17,overcast clouds,2022-07-28 20:07:26
340,Eureka,US,40.8021,-124.1637,74.19,75,68,7.0,broken clouds,2022-07-28 20:07:27
341,Pak Phanang,TH,8.3511,100.202,79.95,84,52,3.36,broken clouds,2022-07-28 20:06:21
342,Hungund,IN,16.0667,76.05,83.03,69,100,4.68,overcast clouds,2022-07-28 20:07:27
343,Remscheid,DE,51.1833,7.2,70.07,60,100,5.48,light rain,2022-07-28 20:07:27
344,Sorland,NO,67.667,12.6934,53.46,75,51,14.03,broken clouds,2022-07-28 20:07:28
345,Khandyga,RU,62.6667,135.6,64.94,72,96,2.13,overcast clouds,2022-07-28 20:07:28
346,Hasaki,JP,35.7333,140.8333,77.4,90,79,10.94,broken clouds,2022-07-28 20:01:57
347,Honiara,SB,-9.4333,159.95,76.39,88,31,6.46,scattered clouds,2022-07-28 20:05:37
348,Piracuruca,BR,-3.9281,-41.7092,85.64,47,93,3.18,overcast clouds,2022-07-28 20:07:28
349,Beringovskiy,RU,63.05,179.3167,49.41,81,100,8.01,overcast clouds,2022-07-28 20:05:16
350,Atambua,ID,-9.1061,124.8925,66.83,85,72,6.87,broken clouds,2022-07-28 20:07:29
351,Shelburne,CA,44.0787,-80.2041,79.75,51,55,17.02,broken clouds,2022-07-28 20:07:29
352,Ancud,CL,-41.8697,-73.8203,47.52,79,100,4.97,overcast clouds,2022-07-28 20:05:35
353,Kavieng,PG,-2.5744,150.7967,80.83,79,57,17.34,light rain,2022-07-28 19:59:01
354,Luanda,AO,-8.8368,13.2343,69.33,85,55,10.38,broken clouds,2022-07-28 20:07:30
355,Berkakit,RU,56.5807,124.7681,60.26,98,100,4.63,moderate rain,2022-07-28 20:07:30
356,Harper,LR,4.375,-7.7169,74.8,77,100,7.52,overcast clouds,2022-07-28 20:07:30
357,Chake Chake,TZ,-5.2459,39.7666,72.37,84,5,6.82,clear sky,2022-07-28 20:07:31
358,Praxedis Guerrero,MX,31.3667,-106.0167,90.86,27,4,5.41,clear sky,2022-07-28 20:05:22
359,Arawa,PG,-6.2132,155.5367,75.58,92,99,2.66,light rain,2022-07-28 20:07:31
360,Novovarshavka,RU,54.1721,74.6946,64.51,97,100,11.99,moderate rain,2022-07-28 20:07:32
361,Tezu,IN,27.9167,96.1667,74.17,96,35,3.22,scattered clouds,2022-07-28 20:07:32
362,Navrongo,GH,10.8956,-1.0921,78.85,76,99,6.35,overcast clouds,2022-07-28 20:07:32
363,Poronaysk,RU,49.2167,143.1167,57.49,95,99,0.76,overcast clouds,2022-07-28 20:07:34
364,Makokou,GA,0.5738,12.8642,70.48,79,100,2.66,overcast clouds,2022-07-28 20:07:34
365,Lompoc,US,34.6391,-120.4579,87.69,69,0,17.27,clear sky,2022-07-28 20:04:45
366,Svetlaya,RU,46.5389,138.3297,63.84,97,87,2.35,overcast clouds,2022-07-28 20:07:34
367,Lavrentiya,RU,65.5833,-171.0,43.7,88,100,4.94,overcast clouds,2022-07-28 20:05:16
368,Choma,ZM,-16.8065,26.9531,55.06,57,3,1.68,clear sky,2022-07-28 20:07:35
369,Yumen,CN,40.2833,97.2,76.84,13,82,9.42,broken clouds,2022-07-28 20:05:59
370,Show Low,US,34.2542,-110.0298,78.66,60,20,6.91,few clouds,2022-07-28 20:07:35
371,Acapulco,MX,16.8634,-99.8901,82.96,69,75,3.47,broken clouds,2022-07-28 20:02:01
372,Namibe,AO,-15.1961,12.1522,61.75,85,11,8.1,few clouds,2022-07-28 20:04:01
373,Dong Hoi,VN,17.4833,106.6,80.08,80,100,2.93,overcast clouds,2022-07-28 20:07:36
374,Katherine,AU,-14.4667,132.2667,59.32,67,60,6.91,broken clouds,2022-07-28 20:04:26
375,Kailua,US,21.4022,-157.7394,83.61,61,40,8.05,scattered clouds,2022-07-28 20:07:36
376,Olga,RU,43.7444,135.2892,66.25,98,99,1.59,overcast clouds,2022-07-28 20:07:37
377,Komsomolskiy,UZ,40.4272,71.7189,88.52,20,100,11.5,overcast clouds,2022-07-28 20:02:09
378,Leshukonskoye,RU,64.8989,45.7622,63.43,97,77,1.83,broken clouds,2022-07-28 20:07:37
379,Port Elizabeth,ZA,-33.918,25.5701,64.09,76,0,7.18,clear sky,2022-07-28 20:00:26
380,Mayumba,GA,-3.432,10.6554,69.73,90,64,4.5,broken clouds,2022-07-28 20:07:37
381,Ponta Do Sol,PT,32.6667,-17.1,75.7,81,1,2.93,clear sky,2022-07-28 20:04:02
382,Mana,GF,5.6592,-53.7767,81.18,80,97,6.8,overcast clouds,2022-07-28 20:07:38
383,Straumen,NO,63.8709,11.2999,51.8,77,77,2.01,broken clouds,2022-07-28 20:07:38
384,Izhma,RU,65.0083,53.9113,66.54,59,21,7.25,few clouds,2022-07-28 20:07:39
385,Vinh,VN,18.6667,105.6667,78.8,87,100,3.49,overcast clouds,2022-07-28 20:01:07
386,Tailai,CN,46.3833,123.4,67.5,99,100,2.39,overcast clouds,2022-07-28 20:07:39
387,Pahrump,US,36.2083,-115.9839,98.65,28,5,3.0,clear sky,2022-07-28 20:05:24
388,Itarema,BR,-2.9248,-39.9167,80.51,71,35,16.67,scattered clouds,2022-07-28 20:07:39
389,Wufeng,CN,27.45,104.8333,58.66,90,3,2.91,clear sky,2022-07-28 20:04:56
390,Norman Wells,CA,65.282,-126.8329,68.83,33,12,4.29,few clouds,2022-07-28 20:04:43
391,Kabalo,CD,-6.05,26.9167,82.0,30,9,1.28,clear sky,2022-07-28 20:07:40
392,Loralai,PK,30.3705,68.598,77.05,73,100,2.33,overcast clouds,2022-07-28 20:07:40
393,Moron,AR,-34.6534,-58.6198,57.99,56,4,11.34,clear sky,2022-07-28 20:01:17
394,Santa Cruz Del Sur,CU,20.7147,-77.9956,82.35,71,56,7.58,broken clouds,2022-07-28 20:07:41
395,Carlsbad,US,33.1581,-117.3506,96.26,71,0,10.36,clear sky,2022-07-28 20:05:07
396,Mrakovo,RU,52.7161,56.6244,57.99,79,69,5.14,broken clouds,2022-07-28 20:07:41
397,Half Moon Bay,US,37.4636,-122.4286,82.81,71,40,18.41,scattered clouds,2022-07-28 20:04:19
398,Neya,RU,58.2972,43.8681,65.19,75,23,7.11,few clouds,2022-07-28 20:07:41
399,Auki,SB,-8.7676,160.7034,76.24,87,76,4.63,broken clouds,2022-07-28 20:07:42
400,Talcahuano,CL,-36.7167,-73.1167,56.88,67,0,12.66,clear sky,2022-07-28 20:03:11
401,Svetlogorsk,BY,52.6333,29.7333,62.22,71,100,4.29,overcast clouds,2022-07-28 20:07:42
402,Tilichiki,RU,60.4667,166.1,47.23,77,100,6.73,overcast clouds,2022-07-28 20:04:52
403,Tigbao,PH,12.5546,123.3389,81.46,84,100,11.99,very heavy rain,2022-07-28 20:07:43
404,Penzance,GB,50.1186,-5.5371,65.08,76,45,4.65,scattered clouds,2022-07-28 20:07:43
405,Grand-Santi,GF,4.25,-54.3833,81.28,90,100,1.68,overcast clouds,2022-07-28 20:07:43
406,Lianran,CN,24.9227,102.485,62.13,95,62,1.32,broken clouds,2022-07-28 20:07:44
407,Okha,RU,53.5739,142.9478,55.29,92,59,7.43,broken clouds,2022-07-28 20:07:44
408,Khandagayty,RU,50.7333,92.05,53.29,68,12,1.81,few clouds,2022-07-28 20:07:44
409,Severo-Yeniseyskiy,RU,60.3725,93.0408,52.92,86,54,2.53,broken clouds,2022-07-28 20:07:44
410,Belmonte,BR,-15.8631,-38.8828,73.06,74,1,6.96,clear sky,2022-07-28 20:07:45
411,Port Hardy,CA,50.6996,-127.4199,66.88,79,64,3.49,broken clouds,2022-07-28 20:03:27
412,Snezhnogorsk,RU,69.1933,33.2531,49.78,80,100,15.39,overcast clouds,2022-07-28 20:07:45
413,Ambon,ID,-3.6954,128.1814,77.14,94,75,4.61,broken clouds,2022-07-28 20:05:21
414,Port Moresby,PG,-9.4431,147.1797,74.1,91,67,7.72,broken clouds,2022-07-28 20:07:46
415,Hayden,US,47.766,-116.7866,98.2,31,0,3.0,clear sky,2022-07-28 20:05:29
416,San Ramon,US,37.7799,-121.978,86.22,54,0,11.5,clear sky,2022-07-28 20:06:57
417,Requena,ES,39.4883,-1.1004,73.8,80,5,7.7,clear sky,2022-07-28 20:07:46
418,Trofaiach,AT,47.4167,15.0,67.66,89,100,1.1,overcast clouds,2022-07-28 20:07:47
419,Boyolangu,ID,-8.1181,111.8935,71.85,94,100,1.77,overcast clouds,2022-07-28 20:07:47
420,Gigmoto,PH,13.7796,124.39,80.94,84,100,4.54,light rain,2022-07-28 20:07:47
421,Novouzensk,RU,50.4592,48.1431,77.02,55,53,7.54,broken clouds,2022-07-28 20:07:48
422,Sidney,AU,-33.8679,151.2073,51.75,72,20,14.97,few clouds,2022-07-28 20:04:23
423,Katobu,ID,-4.9408,122.5276,72.66,89,28,4.07,scattered clouds,2022-07-28 20:07:48
424,Chihuahua,MX,28.5,-106.0,79.63,36,57,9.84,broken clouds,2022-07-28 20:04:08
425,Lufilufi,WS,-13.8745,-171.5986,79.57,79,27,17.58,light rain,2022-07-28 20:07:49
426,Ngunguru,NZ,-35.6167,174.5,52.7,78,20,8.81,few clouds,2022-07-28 20:04:25
427,Jacmel,HT,18.2342,-72.5347,91.24,63,37,6.53,scattered clouds,2022-07-28 20:07:49
428,Taoudenni,ML,22.6783,-3.9836,107.83,13,60,15.84,broken clouds,2022-07-28 20:04:23
429,Clyde River,CA,70.4692,-68.5914,39.43,100,100,13.8,light rain,2022-07-28 20:05:43
430,Yuanping,CN,38.7153,112.7575,63.5,89,97,0.38,overcast clouds,2022-07-28 20:07:50
431,Podor,MR,16.6527,-14.9587,89.44,48,100,19.33,overcast clouds,2022-07-28 20:07:50
432,Fukue,JP,32.6881,128.8419,82.06,82,8,8.25,clear sky,2022-07-28 20:07:50
433,Nizhniy Ingash,RU,56.2,96.53,55.31,94,100,4.52,overcast clouds,2022-07-28 20:07:51
434,Hyeres,FR,43.1167,6.1167,83.05,51,0,5.75,clear sky,2022-07-28 20:07:51
435,Acari,PE,-15.4311,-74.6158,68.74,65,39,8.43,scattered clouds,2022-07-28 20:07:51
436,Howard Springs,AU,-12.497,131.047,67.91,76,81,6.73,broken clouds,2022-07-28 20:07:52
437,Moerai,PF,-22.4333,-151.3333,73.15,79,45,25.5,light rain,2022-07-28 20:07:52
438,Ayr,GB,55.4627,-4.6339,60.78,82,75,4.61,broken clouds,2022-07-28 20:04:02
439,Kahului,US,20.8947,-156.47,87.82,57,20,18.41,few clouds,2022-07-28 20:05:47
440,Manokwari,ID,-0.8667,134.0833,77.65,80,100,1.74,overcast clouds,2022-07-28 20:07:52
441,Bara,NG,10.3744,10.7288,74.68,87,61,6.87,broken clouds,2022-07-28 20:04:45
442,San Vicente,AR,-26.6167,-54.1333,73.54,52,100,3.44,overcast clouds,2022-07-28 20:07:53
443,Klyuchi,RU,52.2667,79.1667,67.14,65,58,7.94,broken clouds,2022-07-28 20:07:53
444,Konstantinovka,RU,49.6167,127.9833,68.09,95,92,4.85,light rain,2022-07-28 20:07:53
445,Karimpur,IN,23.9667,88.6167,83.61,71,100,5.68,overcast clouds,2022-07-28 20:07:54
446,Vangaindrano,MG,-23.35,47.6,65.71,92,70,4.68,light rain,2022-07-28 20:03:50
447,Kibondo,TZ,-3.5864,30.7203,70.02,44,76,4.27,broken clouds,2022-07-28 20:07:54
448,Cap Malheureux,MU,-19.9842,57.6142,69.48,77,2,1.01,clear sky,2022-07-28 20:07:55
449,Kishorganj,BD,24.4333,90.7667,82.9,79,97,2.55,overcast clouds,2022-07-28 20:07:45
450,Kyra,RU,49.5776,111.9753,52.79,94,100,2.71,overcast clouds,2022-07-28 20:07:55
451,Bandrele,YT,-12.9067,45.1914,74.95,83,0,6.91,clear sky,2022-07-28 20:07:55
452,Alice Springs,AU,-23.7,133.8833,35.15,51,29,0.0,scattered clouds,2022-07-28 20:05:33
453,Mackenzie,CA,55.2999,-123.1698,88.86,23,0,5.19,clear sky,2022-07-28 20:07:56
454,Narsaq,GL,60.9167,-46.05,61.02,60,52,6.08,broken clouds,2022-07-28 20:03:52
455,Naze,JP,28.3667,129.4833,80.6,81,24,13.33,few clouds,2022-07-28 20:05:45
456,Ngama,TD,11.7833,17.1667,79.99,72,84,8.5,broken clouds,2022-07-28 20:07:56
457,San Juan De Los Morros,VE,9.9115,-67.3538,78.76,80,56,2.64,light rain,2022-07-28 20:07:57
458,Prieska,ZA,-29.6641,22.7474,58.15,33,0,4.65,clear sky,2022-07-28 20:07:57
459,Rabat,MA,33.9911,-6.8401,73.47,86,0,4.61,clear sky,2022-07-28 20:06:40
460,Hami,CN,42.8,93.45,86.86,11,46,14.61,scattered clouds,2022-07-28 20:07:57
461,Praia,CV,14.9215,-23.5087,86.54,42,0,5.75,clear sky,2022-07-28 20:07:58
462,Dusti,TJ,37.3481,68.664,90.0,19,1,8.19,clear sky,2022-07-28 20:07:58
463,Camana,PE,-16.6228,-72.7111,64.26,75,10,13.06,clear sky,2022-07-28 20:05:40
464,Northam,GB,51.0333,-4.2167,63.61,85,15,6.53,few clouds,2022-07-28 20:07:58
465,Bose,IT,45.4612,8.0137,70.88,91,7,5.37,clear sky,2022-07-28 20:07:59
466,Summerland,CA,49.5998,-119.6691,100.18,20,49,0.18,scattered clouds,2022-07-28 20:07:59
467,Stanghelle,NO,60.5528,5.7357,61.84,81,23,1.86,few clouds,2022-07-28 20:07:59
468,Tiznit,MA,29.5833,-9.5,73.63,58,0,3.38,clear sky,2022-07-28 20:08:00
469,Wanning,CN,18.8003,110.3967,79.54,85,30,5.95,scattered clouds,2022-07-28 20:08:00
470,Coahuayana,MX,18.7333,-103.6833,88.9,60,51,6.69,broken clouds,2022-07-28 20:08:00
471,Selikhino,RU,50.3672,137.4996,67.26,98,100,1.95,overcast clouds,2022-07-28 20:08:01
472,Boa Vista,BR,2.8197,-60.6733,80.58,78,75,5.75,broken clouds,2022-07-28 20:05:03
473,Tucuman,AR,-26.8241,-65.2226,53.6,94,75,6.91,broken clouds,2022-07-28 20:08:01
474,Yar-Sale,RU,66.8333,70.8333,62.08,63,96,5.64,overcast clouds,2022-07-28 20:05:23
475,Ourem,PT,39.6417,-8.5919,70.56,78,0,1.01,clear sky,2022-07-28 20:03:17
476,Atar,MR,20.5169,-13.0499,103.71,9,0,4.56,clear sky,2022-07-28 20:03:50
477,Belawan,ID,3.7755,98.6832,77.29,91,100,5.73,light rain,2022-07-28 20:08:02
478,Yarim,YE,14.298,44.3779,61.14,58,94,5.23,overcast clouds,2022-07-28 20:08:02
479,Labuhan,ID,-6.8844,112.2051,75.65,86,68,7.76,broken clouds,2022-07-28 20:08:02
480,Anapskaya,RU,44.89,37.38,66.43,88,0,2.24,clear sky,2022-07-28 20:08:03
481,Sinjar,IQ,36.3209,41.8754,91.8,12,0,14.81,clear sky,2022-07-28 20:08:03
482,Sal Rei,CV,16.1833,-22.9167,77.88,80,0,16.6,clear sky,2022-07-28 20:08:04
483,Novikovo,RU,51.1537,37.8879,66.99,81,75,10.16,broken clouds,2022-07-28 20:08:04
484,Barceloneta,PR,18.4505,-66.5385,88.29,74,1,20.74,clear sky,2022-07-28 20:08:04
485,Chifeng,CN,42.2683,118.9636,64.11,86,100,3.89,moderate rain,2022-07-28 20:04:16
486,Pangkalanbuun,ID,-2.6833,111.6167,74.73,98,98,2.08,overcast clouds,2022-07-28 20:08:05
487,La Seyne-Sur-Mer,FR,43.0982,5.8847,81.88,47,7,3.0,clear sky,2022-07-28 20:08:05
488,Mabaruma,GY,8.2,-59.7833,83.97,70,24,6.73,few clouds,2022-07-28 20:04:46
489,Pemangkat,ID,1.1667,108.9667,78.35,85,91,2.21,overcast clouds,2022-07-28 20:00:32
490,Nileshwar,IN,12.25,75.1,79.14,91,47,9.55,scattered clouds,2022-07-28 20:08:06
491,Uarini,BR,-2.99,-65.1083,88.41,48,63,0.74,broken clouds,2022-07-28 20:08:06
492,Kalmar,SE,56.6616,16.3616,62.53,80,75,8.05,broken clouds,2022-07-28 20:08:06
493,Lethem,GY,3.3803,-59.7968,85.14,69,98,3.15,overcast clouds,2022-07-28 20:08:07
494,Fallon,US,39.4735,-118.7774,102.92,11,20,0.0,few clouds,2022-07-28 20:08:07
495,Porto Velho,BR,-8.7619,-63.9039,95.05,26,20,5.75,few clouds,2022-07-28 20:08:07
496,Ugoofaaru,MV,5.6667,73.0,81.55,78,65,17.02,broken clouds,2022-07-28 20:08:08
497,Batemans Bay,AU,-35.7167,150.1833,43.84,91,88,5.12,overcast clouds,2022-07-28 20:08:08
498,Kirakira,SB,-10.4544,161.9205,79.05,85,79,8.88,broken clouds,2022-07-28 20:08:08
499,Itacare,BR,-14.2775,-38.9967,72.5,78,3,5.57,clear sky,2022-07-28 20:08:08
500,Majene,ID,-3.5403,118.9707,76.24,90,96,9.93,overcast clouds,2022-07-28 20:06:01
501,Havoysund,NO,70.9963,24.6622,48.43,83,56,11.1,broken clouds,2022-07-28 20:08:09
502,Athabasca,CA,54.7169,-113.2854,84.52,45,2,10.49,clear sky,2022-07-28 20:08:09
503,Carbondale,US,37.7273,-89.2168,86.05,76,40,12.66,scattered clouds,2022-07-28 20:03:54
504,Solginskiy,RU,61.05,41.3428,62.94,97,100,6.96,overcast clouds,2022-07-28 20:08:10
505,Bad Frankenhausen,DE,51.35,11.1,71.01,42,100,1.99,overcast clouds,2022-07-28 20:08:10
506,Rognan,NO,67.0953,15.3878,54.05,63,90,1.92,overcast clouds,2022-07-28 20:08:10
507,La Union,PE,-5.4,-80.75,83.97,40,4,12.77,clear sky,2022-07-28 20:08:11
508,Husainabad,IN,24.5333,84.0167,82.69,73,38,4.79,scattered clouds,2022-07-28 20:08:11
509,Kurchum,KZ,48.5722,83.6542,71.87,46,24,6.38,few clouds,2022-07-28 20:08:11
510,Maarianhamina,AX,60.0973,19.9348,49.86,81,0,3.44,clear sky,2022-07-28 20:08:12
511,Ust-Omchug,RU,61.15,149.6333,50.99,77,100,4.81,light rain,2022-07-28 20:08:12
512,Astoria,US,46.1879,-123.8313,74.46,81,40,5.75,scattered clouds,2022-07-28 20:08:12
513,Fereydun Kenar,IR,36.6864,52.5225,78.49,83,99,13.8,light rain,2022-07-28 20:08:13
514,Flinders,AU,-34.5833,150.8552,50.18,83,61,5.99,broken clouds,2022-07-28 20:00:30
515,Carmen,MX,18.6333,-91.8333,89.64,58,40,9.22,scattered clouds,2022-07-28 20:08:13
516,Poum,NC,-20.2333,164.0167,70.99,76,5,10.11,clear sky,2022-07-28 20:05:19
517,Flin Flon,CA,54.7682,-101.865,79.56,26,30,3.04,scattered clouds,2022-07-28 20:08:14
518,Kodala,IN,19.6333,84.95,81.57,81,100,2.98,overcast clouds,2022-07-28 20:08:14
519,Muborak,UZ,39.2553,65.1528,85.35,20,0,14.67,clear sky,2022-07-28 20:08:14
520,Mnogovershinnyy,RU,53.9353,139.9242,56.95,87,100,0.94,overcast clouds,2022-07-28 20:08:14
521,Siderno,IT,38.2779,16.302,79.34,78,0,7.61,clear sky,2022-07-28 20:08:15
522,Naantali,FI,60.4674,22.0243,59.11,82,0,4.61,clear sky,2022-07-28 20:08:15
523,Asyut,EG,27.181,31.1837,91.85,14,0,6.4,clear sky,2022-07-28 20:08:15
524,Cayenne,GF,4.9333,-52.3333,85.08,7,75,6.91,broken clouds,2022-07-28 20:05:05
525,Cabedelo,BR,-6.9811,-34.8339,79.47,80,5,12.41,clear sky,2022-07-28 20:03:57
526,Khotynets,RU,53.1286,35.3966,57.63,87,94,6.49,overcast clouds,2022-07-28 20:08:16
527,San Carlos,VE,9.6612,-68.5827,82.9,72,100,1.12,overcast clouds,2022-07-28 20:08:16
528,Melfort,CA,52.8667,-104.6177,72.97,43,7,4.59,clear sky,2022-07-28 20:08:17
529,Arenapolis,BR,-14.4503,-56.8461,95.25,16,9,5.3,clear sky,2022-07-28 20:08:17
530,Ayutla,MX,20.1167,-104.3333,73.99,70,100,5.64,overcast clouds,2022-07-28 20:08:17
531,Kamenka,RU,51.3223,42.7678,73.29,59,92,2.44,overcast clouds,2022-07-28 20:08:18
532,Male,MV,4.1748,73.5089,81.43,78,66,14.99,broken clouds,2022-07-28 20:08:18
533,Qui Nhon,VN,13.7667,109.2333,78.6,88,36,3.8,scattered clouds,2022-07-28 20:08:18
534,Vaitape,PF,-16.5167,-151.75,79.41,71,1,24.58,light rain,2022-07-28 20:08:19
535,Hinton,CA,53.4001,-117.5857,91.58,19,3,3.15,clear sky,2022-07-28 20:08:19
536,Borba,BR,-4.3878,-59.5939,96.53,26,5,2.71,clear sky,2022-07-28 20:08:19
537,Borogontsy,RU,62.6683,131.1683,68.41,67,6,3.13,clear sky,2022-07-28 20:08:20
538,San Quintin,MX,30.4833,-115.95,74.26,66,9,12.82,clear sky,2022-07-28 20:08:20
539,Muroto,JP,33.2833,134.15,80.08,85,39,11.88,scattered clouds,2022-07-28 20:08:20
540,Kuvshinovo,RU,57.0295,34.1725,55.56,89,100,3.87,overcast clouds,2022-07-28 20:08:21
541,Innisfail,AU,-17.5333,146.0333,59.85,79,25,4.88,scattered clouds,2022-07-28 20:08:21
542,Xining,CN,36.6167,101.7667,55.67,64,99,1.99,overcast clouds,2022-07-28 19:59:10
543,Sueca,ES,39.2026,-0.3111,84.65,77,0,11.01,clear sky,2022-07-28 20:08:21
544,Ratholo,BW,-22.7245,27.572,58.59,45,0,7.4,clear sky,2022-07-28 20:08:22
545,Wewak,PG,-3.5534,143.6268,78.64,86,91,9.33,moderate rain,2022-07-28 20:08:22
546,Stornoway,GB,58.2093,-6.3865,60.76,82,52,3.44,broken clouds,2022-07-28 20:08:22
547,Taltal,CL,-25.4,-70.4833,64.06,70,99,6.53,overcast clouds,2022-07-28 20:05:48
548,Gwadar,PK,25.1216,62.3254,82.08,76,100,6.42,overcast clouds,2022-07-28 20:08:23
549,Elizabeth City,US,36.2946,-76.2511,97.02,60,20,14.97,few clouds,2022-07-28 20:08:23
550,Dobsina,SK,48.8207,20.3699,63.55,81,42,5.61,scattered clouds,2022-07-28 20:08:23
551,Mayo,US,38.8876,-76.5119,94.46,72,0,9.22,clear sky,2022-07-28 20:03:59
552,Muzhi,RU,65.3667,64.6667,61.72,60,79,7.25,broken clouds,2022-07-28 20:08:24
553,Nalut,LY,30.3333,10.85,93.96,15,50,7.14,scattered clouds,2022-07-28 20:05:51
554,Yeniseysk,RU,58.4497,92.1703,56.97,84,28,4.23,scattered clouds,2022-07-28 20:08:24
555,Livingston,GB,55.9029,-3.5226,59.13,79,40,2.3,scattered clouds,2022-07-28 20:08:25
556,Zhigalovo,RU,54.8097,105.1578,54.14,98,100,3.4,light rain,2022-07-28 20:08:25
557,Carballo,ES,43.213,-8.691,69.22,90,5,1.97,clear sky,2022-07-28 20:04:28
558,Saint-Francois,FR,46.4154,3.9054,74.64,43,0,6.91,clear sky,2022-07-28 20:04:40
559,Chauk,MM,20.8833,94.8167,87.53,61,97,5.06,overcast clouds,2022-07-28 20:08:26
560,Zhangye,CN,38.9342,100.4517,72.73,31,2,8.01,clear sky,2022-07-28 20:04:40
561,Sao Geraldo Do Araguaia,BR,-6.4006,-48.555,95.76,22,0,2.44,clear sky,2022-07-28 20:08:26
562,Avrig,RO,45.7167,24.3833,66.85,82,41,3.38,scattered clouds,2022-07-28 20:03:32
563,Bam,IR,29.106,58.357,88.2,44,91,4.79,overcast clouds,2022-07-28 20:08:26
564,San Miguel,SV,13.4833,-88.1833,88.61,55,100,1.99,overcast clouds,2022-07-28 20:08:27
565,Constitucion,CL,-35.3333,-72.4167,58.28,62,0,13.44,clear sky,2022-07-28 20:00:36
566,Hobyo,SO,5.3505,48.5268,75.97,86,61,24.18,broken clouds,2022-07-28 20:05:18
567,Pangai,TO,-19.8,-174.35,76.39,83,58,22.57,broken clouds,2022-07-28 20:08:27
568,Pochutla,MX,15.7432,-96.4661,87.82,70,85,6.96,overcast clouds,2022-07-28 20:05:42
569,Lapugiu De Jos,RO,45.8833,22.4833,69.01,69,90,2.17,overcast clouds,2022-07-28 20:08:27
570,Praya,CV,14.9215,-23.5087,86.54,42,0,5.75,clear sky,2022-07-28 20:08:28
571,Aykhal,RU,66.0,111.5,67.55,67,9,4.45,clear sky,2022-07-28 20:08:28
572,Vakhtan,RU,57.9659,46.6889,59.79,88,0,5.41,clear sky,2022-07-28 20:08:29
573,Ambunti,PG,-4.2365,142.8448,71.98,100,36,1.01,scattered clouds,2022-07-28 20:08:29
574,Champerico,GT,14.3,-91.9167,83.35,74,100,9.37,overcast clouds,2022-07-28 20:05:30
575,Ornskoldsvik,SE,63.2909,18.7153,54.55,82,100,4.61,overcast clouds,2022-07-28 20:08:29
576,Tongliao,CN,43.6125,122.2653,68.09,98,100,7.29,moderate rain,2022-07-28 20:08:30
577,San Ramon De La Nueva Oran,AR,-23.1322,-64.326,63.43,54,100,11.43,overcast clouds,2022-07-28 20:04:15
578,Juybar,IR,36.6412,52.9124,76.3,90,98,8.7,light rain,2022-07-28 20:08:30
579,Qitaihe,CN,45.8,130.85,68.05,94,98,5.46,overcast clouds,2022-07-28 20:08:30
580,Quelimane,MZ,-17.8786,36.8883,67.08,71,87,3.67,overcast clouds,2022-07-28 20:08:31
581,Ilhabela,BR,-23.7781,-45.3581,75.43,64,19,3.44,few clouds,2022-07-28 20:06:51
582,Agirish,RU,61.9247,63.0231,58.12,61,0,2.1,clear sky,2022-07-28 20:08:31
583,Tessalit,ML,20.1986,1.0114,95.56,23,91,11.41,overcast clouds,2022-07-28 20:08:32
584,Boldumsaz,TM,42.1282,59.671,84.15,31,2,9.35,clear sky,2022-07-28 20:08:32
585,Chapais,CA,49.7834,-74.8492,62.38,94,100,8.12,overcast clouds,2022-07-28 20:08:32
586,Antalaha,MG,-14.9003,50.2788,67.28,87,16,7.36,few clouds,2022-07-28 20:08:33
587,Fare,PF,-16.7,-151.0167,79.18,72,0,24.72,clear sky,2022-07-28 20:08:33
588,Yashkul,RU,46.1711,45.3435,79.07,49,0,5.19,clear sky,2022-07-28 20:08:33
589,Mbuguni,TZ,-3.5667,36.95,65.3,74,56,7.76,broken clouds,2022-07-28 20:08:33
590,Davila,PH,18.4726,120.5763,81.25,81,92,3.65,overcast clouds,2022-07-28 20:08:34
591,Safaga,EG,26.7292,33.9365,90.73,32,1,6.04,clear sky,2022-07-28 20:06:42
592,Wanxian,CN,30.8039,108.3897,77.86,83,0,1.74,clear sky,2022-07-28 20:08:34
593,Salinopolis,BR,-0.6136,-47.3561,81.84,77,57,9.13,broken clouds,2022-07-28 20:08:35
594,Longkou,CN,37.6508,120.3286,76.6,91,100,6.73,moderate rain,2022-07-28 20:08:35
595,Ixtapa,MX,20.7,-105.2,89.22,62,40,8.05,scattered clouds,2022-07-28 20:05:52
596,High Level,CA,58.5169,-117.136,73.72,67,89,7.7,overcast clouds,2022-07-28 20:05:44
597,Matadi,CD,-5.8167,13.45,73.65,71,93,8.75,overcast clouds,2022-07-28 20:08:36
598,Agadir,MA,30.4202,-9.5982,73.85,72,0,4.5,clear sky,2022-07-28 20:08:36
599,Sobolevo,RU,54.4299,31.8996,55.24,80,0,4.65,clear sky,2022-07-28 20:08:36
600,Karatau,KZ,43.1667,70.4667,76.15,34,0,4.23,clear sky,2022-07-28 20:08:36
601,Tukums,LV,56.9669,23.1553,54.75,87,0,6.33,clear sky,2022-07-28 20:08:37
602,Mikropolis,GR,41.1935,23.8157,78.3,62,96,5.84,overcast clouds,2022-07-28 20:08:37
603,Tondon,GN,10.3667,-13.35,73.74,95,60,3.42,broken clouds,2022-07-28 20:08:37
604,Along,IN,28.1667,94.7667,73.63,98,73,1.14,broken clouds,2022-07-28 20:08:38
605,Jinan,CN,36.6683,116.9972,73.44,95,95,3.31,overcast clouds,2022-07-28 20:08:38
606,Morgantown,US,39.6295,-79.9559,81.32,91,100,4.61,overcast clouds,2022-07-28 20:08:29
607,Nakamura,JP,32.9833,132.9333,77.38,93,18,7.85,few clouds,2022-07-28 20:08:38
608,Itanhem,BR,-17.1664,-40.33,75.02,57,18,9.26,few clouds,2022-07-28 20:08:39
609,Sao Lourenco Do Sul,BR,-31.3653,-51.9783,56.73,97,100,17.02,moderate rain,2022-07-28 20:08:39
610,Tecolutla,MX,20.4833,-97.0167,91.26,62,100,11.81,overcast clouds,2022-07-28 20:08:40
611,Victor Harbor,AU,-35.5667,138.6167,43.68,90,100,8.34,overcast clouds,2022-07-28 20:08:40
612,Belyy Yar,RU,53.6039,91.3903,57.09,77,0,6.71,clear sky,2022-07-28 20:08:40
613,Ridgecrest,US,35.6225,-117.6709,101.68,17,75,4.61,broken clouds,2022-07-28 20:08:40
614,Soyo,AO,-6.1349,12.3689,70.97,84,28,6.82,scattered clouds,2022-07-28 20:08:41
615,Ustyuzhna,RU,58.8394,36.4321,58.17,97,100,6.08,overcast clouds,2022-07-28 20:08:41
616,Achacachi,BO,-16.05,-68.6833,55.87,24,48,7.72,scattered clouds,2022-07-28 20:08:41
617,Caluquembe,AO,-13.7833,14.6833,59.13,45,9,5.41,clear sky,2022-07-28 20:08:42
618,Petropavlovsk-Kamchatskiy,RU,53.0452,158.6483,52.39,100,75,4.47,fog,2022-07-28 20:05:30
619,Piacabucu,BR,-10.4056,-36.4344,73.96,87,36,12.12,scattered clouds,2022-07-28 20:08:42
620,Argayash,RU,55.4888,60.8767,58.69,83,100,7.23,overcast clouds,2022-07-28 20:08:42
621,Champawat,IN,29.3333,80.1,62.33,89,100,2.84,moderate rain,2022-07-28 20:08:43
622,Bubaque,GW,11.2833,-15.8333,79.99,83,45,12.88,scattered clouds,2022-07-28 20:05:33
623,Shu,KZ,43.5983,73.7614,77.04,31,0,2.37,clear sky,2022-07-28 20:08:43
624,Rabo De Peixe,PT,37.8,-25.5833,72.91,73,40,9.22,scattered clouds,2022-07-28 20:06:44
625,Tombouctou,ML,20.0,-3.0,103.44,15,2,8.08,clear sky,2022-07-28 20:08:44
626,Taybad,IR,34.74,60.7756,85.48,22,7,18.72,clear sky,2022-07-28 20:08:44
627,Aktau,KZ,43.65,51.2,72.18,67,0,10.25,clear sky,2022-07-28 20:08:44
628,Dubasari,MD,47.2631,29.1608,79.59,39,100,9.15,overcast clouds,2022-07-28 20:08:45
629,Maniitsoq,GL,65.4167,-52.9,41.63,87,91,1.83,overcast clouds,2022-07-28 20:08:45
630,Buenos Aires,AR,-34.6132,-58.3772,57.97,57,40,8.05,scattered clouds,2022-07-28 20:05:07
631,Ormara,PK,25.2088,64.6357,82.02,78,100,14.43,overcast clouds,2022-07-28 20:08:46
632,Strelka,RU,58.0728,93.0344,61.97,77,100,4.25,overcast clouds,2022-07-28 20:08:46
633,Muravlenko,RU,63.7898,74.523,58.46,69,3,3.29,clear sky,2022-07-28 20:06:58
634,Hammerfest,NO,70.6634,23.6821,48.65,87,75,14.97,broken clouds,2022-07-28 20:08:46
635,Yeppoon,AU,-23.1333,150.7333,47.98,86,35,6.82,scattered clouds,2022-07-28 20:08:47
636,Narimanov,RU,46.6927,47.8498,71.51,52,37,5.61,scattered clouds,2022-07-28 20:08:47
637,Mecca,SA,21.4267,39.8261,92.8,28,100,4.92,overcast clouds,2022-07-28 20:07:52
638,Searcy,US,35.2506,-91.7363,93.2,55,0,6.91,clear sky,2022-07-28 20:08:47
639,Vostok,RU,46.4856,135.8833,64.17,95,100,3.36,overcast clouds,2022-07-28 20:04:16
640,Qiongshan,CN,20.0058,110.3542,80.01,79,54,4.12,broken clouds,2022-07-28 20:08:48
641,Mehamn,NO,71.0357,27.8492,49.95,81,75,8.05,light intensity drizzle,2022-07-28 20:08:48
642,Yangambi,CD,0.8102,24.4336,70.63,96,100,2.35,overcast clouds,2022-07-28 20:08:48
643,Horki,BY,54.2861,30.9842,58.17,78,51,4.34,broken clouds,2022-07-28 20:08:49
644,Aksu,CN,41.1231,80.2644,82.09,37,13,1.41,few clouds,2022-07-28 20:08:49
645,Naliya,IN,23.2667,68.8333,81.55,77,58,11.45,broken clouds,2022-07-28 20:08:49
646,Pingliang,CN,35.5392,106.6861,64.76,64,60,3.51,broken clouds,2022-07-28 20:08:50
647,Sao Miguel Do Araguaia,BR,-13.275,-50.1628,90.54,18,26,4.43,scattered clouds,2022-07-28 20:08:50
648,Olafsvik,IS,64.8945,-23.7142,45.46,87,100,16.58,overcast clouds,2022-07-28 20:04:44
649,Lahti,RU,59.9911,30.1597,62.1,82,9,5.75,clear sky,2022-07-28 20:08:50
650,Bougouni,ML,11.417,-7.479,77.81,77,56,4.32,broken clouds,2022-07-28 20:08:51
651,Mapimi,MX,25.8167,-103.85,85.95,33,20,7.78,few clouds,2022-07-28 20:08:51
652,Krasnoselkup,RU,65.7,82.4667,52.21,82,0,9.35,clear sky,2022-07-28 20:08:51
653,Sol-Iletsk,RU,51.1631,54.9918,68.9,72,9,5.88,clear sky,2022-07-28 20:08:52
654,Lake Charles,US,30.2131,-93.2044,84.18,83,40,3.44,scattered clouds,2022-07-28 20:08:52
655,Meadow Lake,US,34.8014,-106.5436,89.46,41,85,2.39,overcast clouds,2022-07-28 20:08:52
656,Lake Havasu City,US,34.4839,-114.3224,96.22,44,0,16.11,clear sky,2022-07-28 20:08:53
657,Palasbari,IN,26.1361,91.5486,80.65,94,75,0.0,mist,2022-07-28 20:08:53
658,Rawson,AR,-43.3002,-65.1023,52.79,51,5,19.42,clear sky,2022-07-28 20:05:39
659,Dhidhdhoo,MV,6.8833,73.1,80.92,80,100,17.54,overcast clouds,2022-07-28 20:08:53
660,Yongan,CN,39.6957,113.6871,63.95,73,6,4.61,clear sky,2022-07-28 20:08:54
661,Drayton Valley,CA,53.2168,-114.9854,81.39,58,0,5.23,clear sky,2022-07-28 20:08:54
662,Santa Cruz,BO,-17.8,-63.1667,87.26,51,20,18.41,few clouds,2022-07-28 20:05:12
663,Kununurra,AU,-15.7667,128.7333,51.78,87,19,2.3,few clouds,2022-07-28 20:03:59
664,Kudat,MY,6.8837,116.8477,78.69,84,100,4.7,overcast clouds,2022-07-28 20:08:55
665,Barra Do Garcas,BR,-15.89,-52.2567,90.45,16,1,5.91,clear sky,2022-07-28 20:04:40
666,Lovozero,RU,68.005,35.0117,49.89,87,100,7.18,overcast clouds,2022-07-28 20:08:55
667,Abalak,RU,58.1286,68.5944,55.27,86,21,7.63,few clouds,2022-07-28 20:04:49
668,Tateyama,JP,34.9833,139.8667,78.1,89,100,9.1,overcast clouds,2022-07-28 20:05:09
669,Richards Bay,ZA,-28.783,32.0377,66.97,79,1,14.38,clear sky,2022-07-28 20:08:55
670,Moindou,NC,-21.6924,165.677,65.16,81,0,6.78,clear sky,2022-07-28 20:08:56
671,Villa Bruzual,VE,9.3328,-69.1208,83.03,71,100,2.33,overcast clouds,2022-07-28 20:08:56
672,Mankono,CI,8.0586,-6.1897,72.19,82,25,4.52,scattered clouds,2022-07-28 20:08:56
673,Portsoy,GB,57.6814,-2.6896,63.18,51,88,15.01,overcast clouds,2022-07-28 20:08:57
674,Kattivakkam,IN,13.2167,80.3167,86.09,84,99,5.17,overcast clouds,2022-07-28 20:08:57
675,Banda Aceh,ID,5.5577,95.3222,77.77,84,100,15.17,overcast clouds,2022-07-28 20:05:50
676,Sept-Iles,CA,50.2001,-66.3821,64.06,81,31,7.0,scattered clouds,2022-07-28 20:00:45
677,Saint Pete Beach,US,27.7253,-82.7412,97.07,63,0,3.44,clear sky,2022-07-28 20:08:58
678,Adrar,MR,20.5022,-10.0711,104.36,7,2,8.59,clear sky,2022-07-28 20:05:47
679,Coos Bay,US,43.3665,-124.2179,81.32,81,0,13.8,clear sky,2022-07-28 20:05:31
680,Methoni,GR,36.8197,21.7049,85.21,74,0,7.67,clear sky,2022-07-28 20:08:58
681,Marawi,PH,7.9986,124.2928,69.1,92,100,4.7,overcast clouds,2022-07-28 20:02:01
682,Puerto Escondido,MX,15.85,-97.0667,88.63,62,40,9.22,scattered clouds,2022-07-28 20:02:30
683,Kinsale,IE,51.7075,-8.5306,63.23,77,40,4.61,scattered clouds,2022-07-28 20:05:21
684,Buala,SB,-8.145,159.5921,79.93,81,60,8.81,light rain,2022-07-28 20:08:59
685,Bowen,AU,-20.0167,148.2333,54.09,81,64,10.16,broken clouds,2022-07-28 20:08:59
686,La Ronge,CA,55.1001,-105.2842,69.91,40,70,6.67,broken clouds,2022-07-28 20:08:59
687,Seeheim-Jugenheim,DE,49.765,8.6519,76.48,39,100,5.86,overcast clouds,2022-07-28 20:09:00
688,Hambantota,LK,6.1241,81.1185,78.48,87,100,5.48,overcast clouds,2022-07-28 20:05:13
